{"type": "FeatureCollection", "features": [{"type": "Feature", "geometry": {"type": "Point", "coordinates": [131.382462, 34.417615]}, "properties": {"name": "萩城", "category": "文化・歴史", "駐車場": "Y", "現地解説": "N", "ランク": "B", "area": "hagi"}}, {"type": "Feature", "geometry": {"type": "Point", "coordinates": [131.39929, 34.410072]}, "properties": {"name": "水練池", "category": "文化・歴史", "駐車場": "Y", "現地解説": "N", "ランク": "B", "area": "hagi"}}, {"type": "Feature", "geometry": {"type": "Point", "coordinates": [131.406387, 34.406241]}, "properties": {"name": "土原のハス田", "category": "文化・歴史", "駐車場": "N", "現地解説": "N", "ランク": "C", "area": "hagi"}}, {"type": "Feature", "geometry": {"type": "Point", "coordinates": [131.400808, 34.420649]}, "properties": {"name": "浜崎伝統的建造物群保存地区", "category": "文化・歴史", "駐車場": "Y", "現地解説": "N", "ランク": "B", "area": "hagi"}}, {"type": "Feature", "geometry": {"type": "Point", "coordinates": [131.387429, 34.413345]}, "properties": {"name": "堀内伝統的建造物群保存地区", "category": "文化・歴史", "駐車場": "Y", "現地解説": "N", "ランク": "B", "area": "hagi"}}, {"type": "Feature", "geometry": {"type": "Point", "coordinates": [131.43389, 34.418936]}, "properties": {"name": "萩焼古窯跡群", "category": "文化・歴史", "駐車場": "N", "現地解説": "N", "ランク": "C", "area": "hagi"}}, {"type": "Feature", "geometry": {"type": "Point", "coordinates": [131.41512, 34.412878]}, "properties": {"name": "郡司鋳造所遺構広場", "category": "文化・歴史", "駐車場": "N", "現地解説": "N", "ランク": "C", "area": "hagi"}}, {"type": "Feature", "geometry": {"type": "Point", "coordinates": [131.418253, 34.428153]}, "properties": {"name": "萩反射炉", "category": "文化・歴史", "駐車場": "Y", "現地解説": "N", "ランク": "B", "area": "hagi"}}, {"type": "Feature", "geometry": {"type": "Point", "coordinates": [131.412106, 34.430366]}, "properties": {"name": "恵美須ヶ鼻造船所跡", "category": "文化・歴史", "駐車場": "Y", "現地解説": "N", "ランク": "B", "area": "hagi"}}, {"type": "Feature", "geometry": {"type": "Point", "coordinates": [131.409166, 34.448826]}, "properties": {"name": "明神池", "category": "文化・歴史", "駐車場": "Y", "現地解説": "N", "ランク": "B", "area": "hagi"}}, {"type": "Feature", "geometry": {"type": "Point", "coordinates": [131.399537, 34.458449]}, "properties": {"name": "笠山椿群生林", "category": "文化・歴史", "駐車場": "Y", "現地解説": "N", "ランク": "B", "area": "hagi"}}, {"type": "Feature", "geometry": {"type": "Point", "coordinates": [131.451985, 34.470474]}, "properties": {"name": "円光寺穴観音古墳", "category": "文化・歴史", "駐車場": "N", "現地解説": "N", "ランク": "C", "area": null}}, {"type": "Feature", "geometry": {"type": "Point", "coordinates": [131.458079, 34.46074]}, "properties": {"name": "三明戸湧水", "category": "文化・歴史", "駐車場": "N", "現地解説": "N", "ランク": "C", "area": null}}, {"type": "Feature", "geometry": {"type": "Point", "coordinates": [131.4634, 34.462399]}, "properties": {"name": "阿字雄の滝", "category": "文化・歴史", "駐車場": "N", "現地解説": "N", "ランク": "C", "area": null}}, {"type": "Feature", "geometry": {"type": "Point", "coordinates": [131.483817, 34.517371]}, "properties": {"name": "無角和牛宇久放牧場", "category": "文化・歴史", "駐車場": "N", "現地解説": "N", "ランク": "C", "area": null}}, {"type": "Feature", "geometry": {"type": "Point", "coordinates": [131.509438, 34.538118]}, "properties": {"name": "木与の棚田", "category": "文化・歴史", "駐車場": "N", "現地解説": "N", "ランク": "C", "area": null}}, {"type": "Feature", "geometry": {"type": "Point", "coordinates": [131.602221, 34.627957]}, "properties": {"name": "久原波止場", "category": "文化・歴史", "駐車場": "N", "現地解説": "N", "ランク": "C", "area": "susa"}}, {"type": "Feature", "geometry": {"type": "Point", "coordinates": [131.608824, 34.520717]}, "properties": {"name": "伊良尾山の湧水", "category": "文化・歴史", "駐車場": "N", "現地解説": "N", "ランク": "C", "area": "ryu"}}, {"type": "Feature", "geometry": {"type": "Point", "coordinates": [131.619279, 34.505275]}, "properties": {"name": "長沢の池", "category": "文化・歴史", "駐車場": "Y", "現地解説": "N", "ランク": "B", "area": null}}, {"type": "Feature", "geometry": {"type": "Point", "coordinates": [131.497786, 34.453753]}, "properties": {"name": "平原耕地整理組合用水施設記念碑", "category": "文化・歴史", "駐車場": "N", "現地解説": "N", "ランク": "C", "area": null}}, {"type": "Feature", "geometry": {"type": "Point", "coordinates": [131.61134, 34.491373]}, "properties": {"name": "羽月の名水", "category": "文化・歴史", "駐車場": "N", "現地解説": "N", "ランク": "C", "area": null}}, {"type": "Feature", "geometry": {"type": "Point", "coordinates": [131.604517, 34.465459]}, "properties": {"name": "穴観音古墳", "category": "文化・歴史", "駐車場": "N", "現地解説": "N", "ランク": "C", "area": null}}, {"type": "Feature", "geometry": {"type": "Point", "coordinates": [131.746185, 34.424078]}, "properties": {"name": "大坪の清水", "category": "文化・歴史", "駐車場": "N", "現地解説": "N", "ランク": "C", "area": "tokusa"}}, {"type": "Feature", "geometry": {"type": "Point", "coordinates": [131.726106, 34.400025]}, "properties": {"name": "狐塚古墳", "category": "文化・歴史", "駐車場": "Y", "現地解説": "N", "ランク": "B", "area": "tokusa"}}, {"type": "Feature", "geometry": {"type": "Point", "coordinates": [131.763968, 34.429914]}, "properties": {"name": "野坂御番所跡", "category": "文化・歴史", "駐車場": "Y", "現地解説": "N", "ランク": "B", "area": "tokusa"}}, {"type": "Feature", "geometry": {"type": "Point", "coordinates": [131.463239, 34.233603]}, "properties": {"name": "国境の碑", "category": "文化・歴史", "駐車場": "Y", "現地解説": "N", "ランク": "B", "area": null}}, {"type": "Feature", "geometry": {"type": "Point", "coordinates": [131.46399, 34.286412]}, "properties": {"name": "佐々並市伝統的建造物群保存地区", "category": "文化・歴史", "駐車場": "Y", "現地解説": "N", "ランク": "B", "area": null}}, {"type": "Feature", "geometry": {"type": "Point", "coordinates": [131.42189, 34.333284]}, "properties": {"name": "一升谷", "category": "文化・歴史", "駐車場": "N", "現地解説": "N", "ランク": "C", "area": null}}, {"type": "Feature", "geometry": {"type": "Point", "coordinates": [131.451652, 34.346404]}, "properties": {"name": "川上のユズおよびナンテン自生地", "category": "文化・歴史", "駐車場": "N", "現地解説": "N", "ランク": "C", "area": null}}, {"type": "Feature", "geometry": {"type": "Point", "coordinates": [131.487293, 34.359203]}, "properties": {"name": "阿武川ダム", "category": "文化・歴史", "駐車場": "Y", "現地解説": "N", "ランク": "B", "area": null}}, {"type": "Feature", "geometry": {"type": "Point", "coordinates": [131.507206, 34.323839]}, "properties": {"name": "佐々並川ダム", "category": "文化・歴史", "駐車場": "N", "現地解説": "N", "ランク": "C", "area": null}}, {"type": "Feature", "geometry": {"type": "Point", "coordinates": [131.538491, 34.505796]}, "properties": {"name": "大板山たたら製鉄遺跡", "category": "文化・歴史", "駐車場": "Y", "現地解説": "N", "ランク": "B", "area": null}}, {"type": "Feature", "geometry": {"type": "Point", "coordinates": [131.149372, 34.787543]}, "properties": {"name": "宇津山観音寺正観音", "category": "文化・歴史", "駐車場": "Y", "現地解説": "N", "ランク": "B", "area": null}}, {"type": "Feature", "geometry": {"type": "Point", "coordinates": [131.159463, 34.772358]}, "properties": {"name": "見島牛運動場", "category": "文化・歴史", "駐車場": "N", "現地解説": "N", "ランク": "C", "area": null}}, {"type": "Feature", "geometry": {"type": "Point", "coordinates": [131.156244, 34.767678]}, "properties": {"name": "八町八反", "category": "文化・歴史", "駐車場": "N", "現地解説": "N", "ランク": "C", "area": null}}, {"type": "Feature", "geometry": {"type": "Point", "coordinates": [131.159463, 34.763597]}, "properties": {"name": "見島ジーコンボ古墳群", "category": "文化・歴史", "駐車場": "N", "現地解説": "N", "ランク": "C", "area": null}}, {"type": "Feature", "geometry": {"type": "Point", "coordinates": [131.592211, 34.584813]}, "properties": {"name": "白須たたら製鉄遺跡", "category": "文化・歴史", "駐車場": "N", "現地解説": "N", "ランク": "C", "area": null}}, {"type": "Feature", "geometry": {"type": "Point", "coordinates": [131.589759, 34.443904]}, "properties": {"name": "奥阿武宰判勘場跡", "category": "文化・歴史", "駐車場": "N", "現地解説": "N", "ランク": "C", "area": null}}, {"type": "Feature", "geometry": {"type": "Point", "coordinates": [131.585661, 34.434826]}, "properties": {"name": "萩酒米みがき協同組合とう精工場", "category": "文化・歴史", "駐車場": "Y", "現地解説": "N", "ランク": "B", "area": null}}, {"type": "Feature", "geometry": {"type": "Point", "coordinates": [131.556843, 34.38578]}, "properties": {"name": "桜郷銅山跡", "category": "文化・歴史", "駐車場": "Y", "現地解説": "N", "ランク": "B", "area": null}}, {"type": "Feature", "geometry": {"type": "Point", "coordinates": [131.578166, 34.386223]}, "properties": {"name": "常徳寺庭園", "category": "文化・歴史", "駐車場": "N", "現地解説": "N", "ランク": "C", "area": null}}, {"type": "Feature", "geometry": {"type": "Point", "coordinates": [131.666497, 34.494437]}, "properties": {"name": "水出の泉", "category": "文化・歴史", "駐車場": "Y", "現地解説": "N", "ランク": "B", "area": null}}]}