{
 "type": "FeatureCollection",
 "features": [
  {
   "type": "Feature",
   "geometry": {
    "type": "Point",
    "coordinates": [
     131.401945,
     34.449673
    ]
   },
   "properties": {
    "name": "笠山山頂火口",
    "category": "ジオサイト",
    "ランク": "AA",
    "説明": "スコリア丘（約1万年前）の噴火口と内部構造",
    "area": "hagi"
   }
  },
  {
   "type": "Feature",
   "geometry": {
    "type": "Point",
    "coordinates": [
     131.401656,
     34.458924
    ]
   },
   "properties": {
    "name": "笠山溶岩堤防",
    "category": "ジオサイト",
    "ランク": "AA",
    "説明": "溶岩（約1万年前）が堤防状に固まった構造",
    "area": "hagi"
   }
  },
  {
   "type": "Feature",
   "geometry": {
    "type": "Point",
    "coordinates": [
     131.396246,
     34.456536
    ]
   },
   "properties": {
    "name": "笠山縄状溶岩",
    "category": "ジオサイト",
    "ランク": "B",
    "説明": "溶岩（約1万年前）が固まる際にできた縄状の構造",
    "area": "hagi"
   }
  },
  {
   "type": "Feature",
   "geometry": {
    "type": "Point",
    "coordinates": [
     131.402024,
     34.458678
    ]
   },
   "properties": {
    "name": "笠山アア溶岩",
    "category": "ジオサイト",
    "ランク": "AA",
    "説明": "溶岩（約1万年前）表面の凹凸構造",
    "area": "hagi"
   }
  },
  {
   "type": "Feature",
   "geometry": {
    "type": "Point",
    "coordinates": [
     131.402218,
     34.458293
    ]
   },
   "properties": {
    "name": "笠山アアクリンカー",
    "category": "ジオサイト",
    "ランク": "B",
    "説明": "溶岩（約1万年前）の底の凹凸構造",
    "area": "hagi"
   }
  },
  {
   "type": "Feature",
   "geometry": {
    "type": "Point",
    "coordinates": [
     131.6238,
     34.53014
    ]
   },
   "properties": {
    "name": "イラオ火山灰露頭",
    "category": "ジオサイト",
    "ランク": "AA",
    "説明": "約40万年前の噴火様子を記録している地層",
    "area": "ryu"
   }
  },
  {
   "type": "Feature",
   "geometry": {
    "type": "Point",
    "coordinates": [
     131.674108,
     34.544607
    ]
   },
   "properties": {
    "name": "畳ヶ淵",
    "category": "ジオサイト",
    "ランク": "AA",
    "説明": "伊良尾山の溶岩（約40万年前）が柱状にひび割れた柱状節理",
    "area": "ryu"
   }
  },
  {
   "type": "Feature",
   "geometry": {
    "type": "Point",
    "coordinates": [
     131.67593,
     34.554729
    ]
   },
   "properties": {
    "name": "猿屋の滝",
    "category": "ジオサイト",
    "ランク": "AA",
    "説明": "伊良尾山の溶岩（約40万年前）が柱状にひび割れた柱状節理",
    "area": "ryu"
   }
  },
  {
   "type": "Feature",
   "geometry": {
    "type": "Point",
    "coordinates": [
     131.677866,
     34.569756
    ]
   },
   "properties": {
    "name": "龍鱗郷",
    "category": "ジオサイト",
    "ランク": "AA",
    "説明": "伊良尾山の溶岩（約40万年前）が柱状にひび割れた柱状節理",
    "area": "ryu"
   }
  },
  {
   "type": "Feature",
   "geometry": {
    "type": "Point",
    "coordinates": [
     131.566074,
     34.462586
    ]
   },
   "properties": {
    "name": "千石台安山岩",
    "category": "ジオサイト",
    "ランク": "E",
    "説明": "地下で2種類のマグマが混ざったことがわかる安山岩",
    "area": null
   }
  },
  {
   "type": "Feature",
   "geometry": {
    "type": "Point",
    "coordinates": [
     131.600268,
     34.450663
    ]
   },
   "properties": {
    "name": "伏馬山スコリア丘",
    "category": "ジオサイト",
    "ランク": "D",
    "説明": "約18万年前の噴火でできたスコリア丘",
    "area": null
   }
  },
  {
   "type": "Feature",
   "geometry": {
    "type": "Point",
    "coordinates": [
     131.51897,
     34.48097
    ]
   },
   "properties": {
    "name": "鍋山",
    "category": "ジオサイト",
    "ランク": "E",
    "説明": "約19万年前の噴火でできた溶岩ドーム",
    "area": null
   }
  },
  {
   "type": "Feature",
   "geometry": {
    "type": "Point",
    "coordinates": [
     131.58131,
     34.4946
    ]
   },
   "properties": {
    "name": "宇生賀の埋もれ木",
    "category": "ジオサイト",
    "ランク": "E",
    "説明": "約3000年前に埋没したスギ林の痕跡",
    "area": "ryu"
   }
  },
  {
   "type": "Feature",
   "geometry": {
    "type": "Point",
    "coordinates": [
     131.758845,
     34.43387
    ]
   },
   "properties": {
    "name": "野坂山",
    "category": "ジオサイト",
    "ランク": "B",
    "説明": "古徳佐湖の形成のきっかけとなった火山の一つ",
    "area": "tokusa"
   }
  },
  {
   "type": "Feature",
   "geometry": {
    "type": "Point",
    "coordinates": [
     131.576958,
     34.305345
    ]
   },
   "properties": {
    "name": "丁字川出合淵",
    "category": "ジオサイト",
    "ランク": "AA",
    "説明": "古徳佐湖の消失の要因である河川争奪の現場",
    "area": "tokusa"
   }
  },
  {
   "type": "Feature",
   "geometry": {
    "type": "Point",
    "coordinates": [
     131.149783,
     34.759574
    ]
   },
   "properties": {
    "name": "本村漁港西海岸",
    "category": "ジオサイト",
    "ランク": "E",
    "説明": "見島火山のスコリア丘（約1200万年前）の断面構造",
    "area": null
   }
  },
  {
   "type": "Feature",
   "geometry": {
    "type": "Point",
    "coordinates": [
     131.162381,
     34.776649
    ]
   },
   "properties": {
    "name": "日崎",
    "category": "ジオサイト",
    "ランク": "E",
    "説明": "見島火山の活動後半（約820万年前）に起きた安山岩の岩脈",
    "area": null
   }
  },
  {
   "type": "Feature",
   "geometry": {
    "type": "Point",
    "coordinates": [
     131.154963,
     34.776287
    ]
   },
   "properties": {
    "name": "イタジキ",
    "category": "ジオサイト",
    "ランク": "E",
    "説明": "溶岩流に覆われたスコリア丘（約1200万年前）の断面構造",
    "area": null
   }
  },
  {
   "type": "Feature",
   "geometry": {
    "type": "Point",
    "coordinates": [
     131.149611,
     34.787573
    ]
   },
   "properties": {
    "name": "観音崎",
    "category": "ジオサイト",
    "ランク": "C",
    "説明": "火山灰層とそれを貫く溶岩の断面構造（約1200万年前）",
    "area": null
   }
  },
  {
   "type": "Feature",
   "geometry": {
    "type": "Point",
    "coordinates": [
     131.136155,
     34.791464
    ]
   },
   "properties": {
    "name": "見島北東海岸",
    "category": "ジオサイト",
    "ランク": "E",
    "説明": "溶岩台地を構成するピクライト玄武岩（約1200万年前）",
    "area": null
   }
  },
  {
   "type": "Feature",
   "geometry": {
    "type": "Point",
    "coordinates": [
     131.604951,
     34.673961
    ]
   },
   "properties": {
    "name": "山島",
    "category": "ジオサイト",
    "ランク": "C",
    "説明": "日本海拡大期（約1500万年前）の海底火山",
    "area": null
   }
  },
  {
   "type": "Feature",
   "geometry": {
    "type": "Point",
    "coordinates": [
     131.613245,
     34.652117
    ]
   },
   "properties": {
    "name": "高山磁石石",
    "category": "ジオサイト",
    "ランク": "B",
    "説明": "日本海拡大期（約1500万年前）のはんれい岩マグマ",
    "area": "susa"
   }
  },
  {
   "type": "Feature",
   "geometry": {
    "type": "Point",
    "coordinates": [
     131.597725,
     34.651438
    ]
   },
   "properties": {
    "name": "ホルンフェルス",
    "category": "ジオサイト",
    "ランク": "E",
    "説明": "日本海拡大期（約1500万年前）のマグマの熱で砂泥互層が変成したホルンフェルス",
    "area": "susa"
   }
  },
  {
   "type": "Feature",
   "geometry": {
    "type": "Point",
    "coordinates": [
     131.566253,
     34.620421
    ]
   },
   "properties": {
    "name": "屏風岩",
    "category": "ジオサイト",
    "ランク": "C",
    "説明": "日本海拡大期（約1500万年前）の岩脈の断面構造",
    "area": null
   }
  },
  {
   "type": "Feature",
   "geometry": {
    "type": "Point",
    "coordinates": [
     131.596234,
     34.647323
    ]
   },
   "properties": {
    "name": "畳岩（須佐ホルンフェルス）",
    "category": "ジオサイト",
    "ランク": "AA",
    "説明": "日本海拡大期（約1500万年前）のやや深い海底に堆積した砂泥互層",
    "area": "susa"
   }
  },
  {
   "type": "Feature",
   "geometry": {
    "type": "Point",
    "coordinates": [
     131.591234,
     34.645806
    ]
   },
   "properties": {
    "name": "海苔石",
    "category": "ジオサイト",
    "ランク": "B",
    "説明": "日本海拡大期（約1500万年前）の浅い海底に堆積した砂岩層",
    "area": "susa"
   }
  },
  {
   "type": "Feature",
   "geometry": {
    "type": "Point",
    "coordinates": [
     131.606527,
     34.63318
    ]
   },
   "properties": {
    "name": "平島礫岩層",
    "category": "ジオサイト",
    "ランク": "C",
    "説明": "日本海拡大期（約1500万年前）の海岸付近に堆積した礫岩層",
    "area": "susa"
   }
  },
  {
   "type": "Feature",
   "geometry": {
    "type": "Point",
    "coordinates": [
     131.637949,
     34.528695
    ]
   },
   "properties": {
    "name": "道永の滝",
    "category": "ジオサイト",
    "ランク": "B",
    "説明": "田万川カルデラの活動（約3000万年前）で噴出した火山礫凝灰岩",
    "area": "ryu"
   }
  },
  {
   "type": "Feature",
   "geometry": {
    "type": "Point",
    "coordinates": [
     131.554224,
     34.590966
    ]
   },
   "properties": {
    "name": "惣郷海岸",
    "category": "ジオサイト",
    "ランク": "E",
    "説明": "日本海拡大期（約1500万年前）の岩脈の断面構造",
    "area": null
   }
  },
  {
   "type": "Feature",
   "geometry": {
    "type": "Point",
    "coordinates": [
     131.499547,
     34.532094
    ]
   },
   "properties": {
    "name": "木与の流紋岩",
    "category": "ジオサイト",
    "ランク": "D",
    "説明": "巨大火山の活動（約1億年前）で噴出した流紋岩質溶岩",
    "area": null
   }
  },
  {
   "type": "Feature",
   "geometry": {
    "type": "Point",
    "coordinates": [
     131.448182,
     34.289196
    ]
   },
   "properties": {
    "name": "小松ヶ谷溶岩",
    "category": "ジオサイト",
    "ランク": "C",
    "説明": "佐々並カルデラ（約1億年前）の中央で噴出した安山岩質溶岩",
    "area": null
   }
  },
  {
   "type": "Feature",
   "geometry": {
    "type": "Point",
    "coordinates": [
     131.463702,
     34.28094
    ]
   },
   "properties": {
    "name": "淵ヶ平",
    "category": "ジオサイト",
    "ランク": "B",
    "説明": "佐々並カルデラ（約1億年前）の活動で噴出した凝灰岩",
    "area": null
   }
  },
  {
   "type": "Feature",
   "geometry": {
    "type": "Point",
    "coordinates": [
     131.481018,
     34.254589
    ]
   },
   "properties": {
    "name": "小木原の凝灰岩",
    "category": "ジオサイト",
    "ランク": "C",
    "説明": "佐々並カルデラ（約1億年前）の活動で噴出した凝灰岩",
    "area": null
   }
  },
  {
   "type": "Feature",
   "geometry": {
    "type": "Point",
    "coordinates": [
     131.560842,
     34.330789
    ]
   },
   "properties": {
    "name": "第二断魚瀑",
    "category": "ジオサイト",
    "ランク": "B",
    "説明": "生雲カルデラ（約1億年前）の活動で噴出した凝灰岩",
    "area": "tokusa"
   }
  },
  {
   "type": "Feature",
   "geometry": {
    "type": "Point",
    "coordinates": [
     131.566136,
     34.328162
    ]
   },
   "properties": {
    "name": "下和留瀬",
    "category": "ジオサイト",
    "ランク": "B",
    "説明": "生雲カルデラ（約1億年前）の活動で噴出した凝灰岩",
    "area": "tokusa"
   }
  },
  {
   "type": "Feature",
   "geometry": {
    "type": "Point",
    "coordinates": [
     131.562832,
     34.320894
    ]
   },
   "properties": {
    "name": "鈴ヶ茶屋周辺河床",
    "category": "ジオサイト",
    "ランク": "B",
    "説明": "生雲カルデラ（約1億年前）の活動で噴出した凝灰岩",
    "area": "tokusa"
   }
  },
  {
   "type": "Feature",
   "geometry": {
    "type": "Point",
    "coordinates": [
     131.541401,
     34.366259
    ]
   },
   "properties": {
    "name": "重塀岩",
    "category": "ジオサイト",
    "ランク": "C",
    "説明": "生雲カルデラ（約1億年前）の活動にともなう安山岩の岩脈",
    "area": null
   }
  },
  {
   "type": "Feature",
   "geometry": {
    "type": "Point",
    "coordinates": [
     131.466936,
     34.537996
    ]
   },
   "properties": {
    "name": "モドロ岬",
    "category": "ジオサイト",
    "ランク": "E",
    "説明": "カルデラ（約1億年前）地下のマグマだまり内のマグマ混交構造",
    "area": null
   }
  },
  {
   "type": "Feature",
   "geometry": {
    "type": "Point",
    "coordinates": [
     131.477777,
     34.533666
    ]
   },
   "properties": {
    "name": "ウッツリ",
    "category": "ジオサイト",
    "ランク": "E",
    "説明": "カルデラ（約1億年前）地下のマグマだまり上部の断面構造",
    "area": null
   }
  },
  {
   "type": "Feature",
   "geometry": {
    "type": "Point",
    "coordinates": [
     131.488898,
     34.533235
    ]
   },
   "properties": {
    "name": "小磯の鼻",
    "category": "ジオサイト",
    "ランク": "E",
    "説明": "カルデラ（約1億年前）地下のマグマだまり内のマグマ混交構造",
    "area": null
   }
  },
  {
   "type": "Feature",
   "geometry": {
    "type": "Point",
    "coordinates": [
     131.326642,
     34.395456
    ]
   },
   "properties": {
    "name": "三見西の浜",
    "category": "ジオサイト",
    "ランク": "E",
    "area": null
   }
  },
  {
   "type": "Feature",
   "geometry": {
    "type": "Point",
    "coordinates": [
     131.455668,
     34.525337
    ]
   },
   "properties": {
    "name": "大平瀬",
    "category": "ジオサイト",
    "ランク": "E",
    "説明": "日本海ができる前の大陸の火山活動（約1億年前）の溶岩",
    "area": null
   }
  },
  {
   "type": "Feature",
   "geometry": {
    "type": "Point",
    "coordinates": [
     131.461295,
     34.52882
    ]
   },
   "properties": {
    "name": "遠岳山西海岸",
    "category": "ジオサイト",
    "ランク": "E",
    "説明": "日本海ができる前の大陸（約1億年前）で赤や緑の泥が堆積した地層",
    "area": null
   }
  },
  {
   "type": "Feature",
   "geometry": {
    "type": "Point",
    "coordinates": [
     131.327556,
     34.403365
    ]
   },
   "properties": {
    "name": "仙毒の幕岩",
    "category": "ジオサイト",
    "ランク": "D",
    "説明": "日本海ができる前の大陸（約1億年前）で赤や緑の泥が堆積した地層",
    "area": null
   }
  },
  {
   "type": "Feature",
   "geometry": {
    "type": "Point",
    "coordinates": [
     131.419636,
     34.357031
    ]
   },
   "properties": {
    "name": "瓜作のチャート",
    "category": "ジオサイト",
    "ランク": "E",
    "説明": "南の深海に堆積（約3.5億年前）した微生物の死がいでできた地層",
    "area": null
   }
  },
  {
   "type": "Feature",
   "geometry": {
    "type": "Point",
    "coordinates": [
     131.514258,
     34.385116
    ]
   },
   "properties": {
    "name": "半田石灰岩",
    "category": "ジオサイト",
    "ランク": "E",
    "説明": "南の海のサンゴ礁（約3.5億年前）の地層",
    "area": null
   }
  },
  {
   "type": "Feature",
   "geometry": {
    "type": "Point",
    "coordinates": [
     131.568696,
     34.384217
    ]
   },
   "properties": {
    "name": "蔵目喜石灰岩",
    "category": "ジオサイト",
    "ランク": "E",
    "説明": "南の海のサンゴ礁（約3.5億年前）の地層",
    "area": "tokusa"
   }
  }
 ]
}